City_ID,City,Lat,Lng,Max Temp,Humidity,Cloudiness,Windspeed,Country,Date
0,qaanaaq,77.484,-69.3632,43.38,66,81,3.89,GL,1659324369
1,genhe,50.7833,121.5167,80.76,39,33,6.26,CN,1659324370
2,brewster,41.3973,-73.6171,75.61,83,0,0.0,US,1659324371
3,yar-sale,66.8333,70.8333,56.66,61,5,8.59,RU,1659324371
4,dikson,73.5069,80.5464,41.29,94,100,9.46,RU,1659324372
5,severo-kurilsk,50.6789,156.125,55.83,76,48,9.86,RU,1659324238
6,yashkul,46.1711,45.3435,80.94,50,0,2.64,RU,1659324372
7,batticaloa,7.7102,81.6924,80.87,78,99,3.33,LK,1659324373
8,villamor,6.7047,124.5186,82.72,75,100,2.77,PH,1659324373
9,bambanglipuro,-7.95,110.2833,82.42,65,50,4.61,ID,1659324374
10,punta arenas,-53.15,-70.9167,41.11,81,75,10.36,CL,1659324146
11,boden,65.8252,21.6886,55.4,96,98,1.86,SE,1659324374
12,gigmoto,13.7796,124.39,86.23,69,100,8.34,PH,1659324375
13,bluff,-46.6,168.3333,52.81,72,100,16.87,NZ,1659324375
14,solnechnyy,50.7214,136.6319,81.97,58,99,7.92,RU,1659324375
15,tuktoyaktuk,69.4541,-133.0374,62.6,63,40,8.05,CA,1659324376
16,bilibino,68.0546,166.4372,67.03,38,66,8.93,RU,1659324376
17,longyearbyen,78.2186,15.6401,49.84,81,40,2.3,SJ,1659324265
18,malmesbury,-33.4608,18.7271,40.01,77,0,5.79,ZA,1659324377
19,new norfolk,-42.7826,147.0587,54.9,56,30,11.05,AU,1659324377
20,sinnamary,5.3833,-52.95,77.9,87,99,6.69,GF,1659324143
21,ponta do sol,32.6667,-17.1,70.72,80,4,2.77,PT,1659324378
22,esna,25.2934,32.554,84.79,24,82,7.07,EG,1659324378
23,pisco,-13.7,-76.2167,60.85,82,100,5.75,PE,1659324298
24,mataura,-46.1927,168.8643,52.48,70,87,8.12,NZ,1659324379
25,lorengau,-2.0226,147.2712,84.18,74,99,10.8,PG,1659324379
26,albany,42.6001,-73.9662,72.3,76,100,2.17,US,1659324120
27,faanui,-16.4833,-151.75,78.1,73,10,25.5,PF,1659324380
28,rikitea,-23.1203,-134.9692,71.67,76,98,25.34,PF,1659324196
29,yambio,4.5721,28.3955,65.03,98,56,2.73,SS,1659324380
30,isangel,-19.55,169.2667,82.51,74,40,10.36,VU,1659324168
31,talakan,50.3167,130.3667,79.65,76,99,5.32,RU,1659324381
32,praia da vitoria,38.7333,-27.0667,70.05,88,20,5.12,PT,1659324258
33,castro,-24.7911,-50.0119,51.85,80,0,2.44,BR,1659324382
34,cape town,-33.9258,18.4232,54.37,73,0,9.22,ZA,1659324382
35,palmer,42.1584,-72.3287,74.86,75,75,3.44,US,1659324382
36,butaritari,3.0707,172.7902,81.82,77,68,13.62,KI,1659324383
37,srandakan,-7.9386,110.2506,82.38,65,48,5.08,ID,1659324383
38,avarua,-21.2078,-159.775,77.05,78,40,10.36,CK,1659324379
39,ribeira grande,38.5167,-28.7,73.49,76,15,8.9,PT,1659324384
40,hamilton,39.1834,-84.5333,71.24,91,0,5.75,US,1659324219
41,erenhot,43.6475,111.9767,86.18,35,100,10.36,CN,1659324384
42,tiksi,71.6872,128.8694,40.23,94,100,16.93,RU,1659324385
43,chuy,-33.6971,-53.4616,46.76,88,37,3.74,UY,1659324385
44,namatanai,-3.6667,152.4333,84.97,69,96,11.43,PG,1659324385
45,vaini,-21.2,-175.2,78.96,100,75,6.91,TO,1659324386
46,hofn,64.2539,-15.2082,48.79,62,38,11.5,IS,1659324386
47,pevek,69.7008,170.3133,53.51,51,1,10.74,RU,1659324387
48,upata,8.0086,-62.3989,75.2,97,89,4.61,VE,1659324387
49,nevel,56.0209,29.9284,56.46,95,100,10.07,RU,1659324387
50,busselton,-33.65,115.3333,62.64,77,76,20.51,AU,1659324388
51,manado,1.487,124.8455,90.37,62,40,3.44,ID,1659324388
52,hithadhoo,-0.6,73.0833,80.89,73,88,14.47,MV,1659324389
53,salmas,38.1973,44.7653,71.96,57,23,0.51,IR,1659324389
54,bredasdorp,-34.5322,20.0403,41.68,85,0,3.96,ZA,1659324389
55,lebu,-37.6167,-73.65,46.09,84,100,5.17,CL,1659324390
56,nokaneng,-19.6667,22.2667,54.14,25,0,6.87,BW,1659324390
57,kushikino,31.7167,130.2667,89.08,74,72,15.26,JP,1659324390
58,arraial do cabo,-22.9661,-42.0278,68.5,73,0,10.36,BR,1659324391
59,shimoda,34.6667,138.95,93.11,70,83,13.31,JP,1659324391
60,bambous virieux,-20.3428,57.7575,70.05,83,40,4.61,MU,1659324392
61,saint-pierre,-21.3393,55.4781,68.92,63,0,8.05,RE,1659324392
62,roma,43.2128,-75.4557,69.94,85,0,0.0,US,1659324102
63,atuona,-9.8,-139.0333,77.27,73,10,12.46,PF,1659324392
64,georgetown,5.4112,100.3354,85.93,81,20,2.3,MY,1659324393
65,camacha,33.0833,-16.3333,67.42,78,75,10.36,PT,1659324393
66,kawhia,-38.0651,174.8183,60.51,62,8,9.4,NZ,1659324394
67,kodiak,57.79,-152.4072,65.71,63,100,3.44,US,1659324394
68,vila velha,-20.3297,-40.2925,69.94,84,75,2.3,BR,1659324138
69,provideniya,64.3833,-173.3,51.91,66,0,4.47,RU,1659324395
70,ambon,-3.6954,128.1814,78.94,83,40,3.44,ID,1659324395
71,soyo,-6.1349,12.3689,68.43,94,19,8.34,AO,1659324396
72,linxia,35.6003,103.2064,74.7,62,85,3.56,CN,1659324396
73,ivdel,60.6911,60.4206,60.12,63,94,4.14,RU,1659324396
74,warri,5.5167,5.75,73.24,92,100,5.61,NG,1659324397
75,port alfred,-33.5906,26.891,52.16,75,0,10.07,ZA,1659324171
76,ardakan,32.31,54.0175,86.22,21,90,3.06,IR,1659324397
77,saint george,37.1041,-113.5841,87.64,52,0,13.8,US,1659324398
78,la asuncion,11.0333,-63.8628,65.93,87,100,10.36,VE,1659324398
79,ushuaia,-54.8,-68.3,37.06,93,75,3.44,AR,1659324190
80,carnarvon,-24.8667,113.6333,65.43,77,100,11.54,AU,1659324399
81,hermanus,-34.4187,19.2345,38.8,75,0,7.76,ZA,1659324399
82,airai,-8.9266,125.4092,75.15,47,62,2.77,TL,1659324400
83,lavrentiya,65.5833,-171.0,48.22,71,28,4.41,RU,1659324400
84,hlukhiv,51.6782,33.9162,58.01,74,39,8.32,UA,1659324400
85,fortuna,40.5982,-124.1573,62.98,88,100,8.05,US,1659324401
86,kautokeino,69.0125,23.0412,50.74,87,69,2.66,NO,1659324401
87,iqaluit,63.7506,-68.5145,45.43,74,80,2.28,CA,1659324402
88,herat,34.5,62.0,80.42,22,0,20.65,AF,1659324402
89,chokurdakh,70.6333,147.9167,73.24,42,97,12.88,RU,1659324403
90,srednekolymsk,67.45,153.6833,79.03,32,82,13.65,RU,1659324403
91,deputatskiy,69.3,139.9,73.58,54,99,13.65,RU,1659324403
92,tolmachevo,54.9824,82.7363,67.98,88,100,4.47,RU,1659324404
93,half moon bay,37.4636,-122.4286,71.02,83,100,14.97,US,1659324268
94,virginia beach,36.8529,-75.978,76.01,95,75,3.44,US,1659324404
95,tasiilaq,65.6145,-37.6368,41.16,56,5,3.85,GL,1659324405
96,natal,-5.795,-35.2094,77.22,94,75,5.75,BR,1659324155
97,rio grande,-32.035,-52.0986,53.71,94,9,5.99,BR,1659324316
98,kapaa,22.0752,-159.319,87.78,67,40,17.27,US,1659324405
99,pueblo,38.2545,-104.6091,82.62,36,0,5.75,US,1659324179
100,mayskiy,47.6931,40.1025,72.81,61,22,10.04,RU,1659324406
101,bundaberg,-24.85,152.35,71.22,66,100,4.0,AU,1659324406
102,dunedin,-45.8742,170.5036,50.81,68,73,4.72,NZ,1659324407
103,adrar,20.5022,-10.0711,88.68,44,13,12.66,MR,1659324407
104,bauchi,10.5,10.0,72.64,78,100,4.29,NG,1659324407
105,lingsugur,16.1667,76.5167,83.21,62,82,11.48,IN,1659324408
106,carandai,-20.9536,-43.8064,54.77,96,0,4.59,BR,1659324408
107,labuhan,-6.8844,112.2051,83.46,66,73,6.44,ID,1659324409
108,yellowknife,62.456,-114.3525,63.12,48,20,4.61,CA,1659324308
109,qui nhon,13.7667,109.2333,85.01,68,100,4.43,VN,1659324236
110,saldanha,-33.0117,17.9442,37.45,80,0,12.37,ZA,1659324409
111,banda aceh,5.5577,95.3222,83.19,71,100,10.22,ID,1659324410
112,almaznyy,48.0448,40.045,68.27,68,2,9.01,RU,1659324410
113,cabo san lucas,22.8909,-109.9124,85.51,80,27,1.99,MX,1659324360
114,vestmannaeyjar,63.4427,-20.2734,49.05,78,68,17.09,IS,1659324411
115,kisangani,0.5167,25.2,69.15,99,100,0.56,CD,1659324411
116,champerico,14.3,-91.9167,76.82,85,100,8.72,GT,1659324411
117,whitianga,-36.8333,175.7,58.42,57,19,6.67,NZ,1659324412
118,ossora,59.2353,163.0719,58.82,73,39,11.86,RU,1659324412
119,hobart,-42.8794,147.3294,55.26,59,40,19.57,AU,1659324413
120,odienne,9.51,-7.5692,69.55,97,88,3.56,CI,1659324413
121,tanout,14.9709,8.8879,77.02,67,17,7.54,NE,1659324413
122,berlevag,70.8578,29.0864,57.2,90,47,3.51,NO,1659324414
123,barrow,71.2906,-156.7887,35.62,87,100,11.5,US,1659324414
124,hasaki,35.7333,140.8333,100.29,65,75,7.29,JP,1659324415
125,acarau,-2.8856,-40.12,77.13,86,1,12.88,BR,1659324415
126,lompoc,34.6391,-120.4579,77.14,81,20,6.91,US,1659324369
127,imbituba,-28.24,-48.6703,53.1,99,89,9.93,BR,1659324416
128,maceio,-9.6658,-35.7353,74.64,88,20,1.14,BR,1659324416
129,marawi,7.9986,124.2928,82.36,56,100,2.86,PH,1659324416
130,ilulissat,69.2167,-51.1,55.42,38,72,17.27,GL,1659324417
131,andenes,69.3143,16.1194,55.92,88,100,0.0,NO,1659324417
132,bowling green,36.9903,-86.4436,76.93,91,100,5.75,US,1659324131
133,hilo,19.7297,-155.09,80.33,69,100,11.5,US,1659324418
134,baoding,38.8511,115.4903,89.73,58,0,3.85,CN,1659324418
135,cheremshan,54.6667,51.5,65.3,85,96,4.7,RU,1659324419
136,kruisfontein,-34.0033,24.7314,44.87,81,0,5.93,ZA,1659324419
137,leningradskiy,69.3833,178.4167,51.26,65,58,10.22,RU,1659324419
138,meulaboh,4.1363,96.1285,81.57,76,100,5.7,ID,1659324420
139,kaitangata,-46.2817,169.8464,51.37,62,100,8.59,NZ,1659324420
140,puerto ayora,-0.7393,-90.3518,70.56,93,90,5.01,EC,1659324420
141,vila do maio,15.1333,-23.2167,77.79,75,80,11.63,CV,1659324421
142,jamestown,42.097,-79.2353,69.71,50,40,4.61,US,1659324208
143,nizhniy odes,63.6445,54.856,61.48,58,99,7.92,RU,1659324421
144,dryden,49.7833,-92.7503,59.29,100,100,9.22,CA,1659324154
145,gondanglegi,-7.7479,112.0132,84.6,59,49,3.89,ID,1659324422
146,vao,-22.6667,167.4833,69.84,79,82,24.58,NC,1659324346
147,vila franca do campo,37.7167,-25.4333,70.21,86,0,2.89,PT,1659324423
148,esperance,-33.8667,121.9,57.04,48,70,21.27,AU,1659324424
149,dehloran,32.6941,47.2679,91.47,47,0,7.78,IR,1659324424
150,te anau,-45.4167,167.7167,44.82,93,100,7.2,NZ,1659324424
151,xunchang,28.4543,104.715,87.85,60,100,1.34,CN,1659324425
152,panzhihua,26.5851,101.7128,77.9,71,97,1.54,CN,1659324425
153,suez,29.9737,32.5263,74.68,86,1,7.11,EG,1659324425
154,vanimo,-2.6741,141.3028,86.79,64,82,8.23,PG,1659324426
155,salalah,17.0151,54.0924,77.09,88,75,4.61,OM,1659324426
156,luwingu,-10.2621,29.9271,53.13,68,0,4.32,ZM,1659324427
157,bethel,41.3712,-73.414,75.49,81,0,0.0,US,1659324146
158,camocim,-2.9022,-40.8411,76.51,86,27,11.18,BR,1659324427
159,dingle,10.9995,122.6711,84.22,72,100,3.85,PH,1659324222
160,clyde river,70.4692,-68.5914,35.83,100,100,3.44,CA,1659324428
161,beringovskiy,63.05,179.3167,50.38,62,100,3.98,RU,1659324428
162,manchar,19.0,73.9333,74.88,82,86,5.73,IN,1659324429
163,pacifica,37.6138,-122.4869,70.43,91,75,14.97,US,1659324429
164,bagdarin,54.4333,113.6,68.81,64,53,3.83,RU,1659324430
165,bhatkal,13.9667,74.5667,80.44,85,99,10.4,IN,1659324430
166,puerto el triunfo,13.2833,-88.55,80.37,80,83,3.38,SV,1659324430
167,pitimbu,-7.4706,-34.8086,73.99,81,97,11.34,BR,1659324431
168,winnemucca,40.973,-117.7357,93.25,8,0,0.0,US,1659324431
169,meadow lake,34.8014,-106.5436,81.12,35,89,5.84,US,1659324154
170,kang,-23.6752,22.7876,56.1,32,87,11.63,BW,1659324432
171,madoc,44.5084,-77.4745,68.72,90,63,2.86,CA,1659324432
172,saint-philippe,-21.3585,55.7679,66.22,78,50,10.47,RE,1659324433
173,pacific grove,36.6177,-121.9166,64.51,86,0,3.44,US,1659324433
174,estepa,37.2926,-4.879,70.29,78,0,6.33,ES,1659324434
175,ahipara,-35.1667,173.1667,57.94,56,15,6.87,NZ,1659324217
176,guangyuan,32.442,105.823,86.38,62,71,4.41,CN,1659324434
177,keti bandar,24.1447,67.4497,82.9,84,97,21.25,PK,1659324435
178,ibiruba,-28.6275,-53.0897,49.75,84,0,2.24,BR,1659324435
179,topolobampo,25.6,-109.05,83.73,64,87,4.05,MX,1659324435
180,shakawe,-18.3667,21.85,54.72,28,0,6.29,BW,1659324436
181,brae,60.3964,-1.353,51.98,82,94,11.16,GB,1659324436
182,marsh harbour,26.5412,-77.0636,83.39,74,75,13.94,BS,1659324437
183,laela,-8.5667,32.05,54.48,86,0,4.43,TZ,1659324437
184,east london,-33.0153,27.9116,49.14,66,0,8.05,ZA,1659324437
185,kanniyakumari,8.0833,77.5667,80.29,81,100,14.63,IN,1659324439
186,camana,-16.6228,-72.7111,58.87,84,37,6.15,PE,1659324439
187,grindavik,63.8424,-22.4338,48.15,87,75,6.91,IS,1659324440
188,tyazhinskiy,56.116,88.524,69.78,78,25,8.41,RU,1659324440
189,porangatu,-13.4408,-49.1486,72.1,27,0,2.86,BR,1659324441
190,porto torres,40.835,8.3972,68.18,73,0,3.62,IT,1659324441
191,alice springs,-23.7,133.8833,67.55,30,51,14.97,AU,1659324441
192,shadegan,30.6497,48.6647,89.55,62,21,6.58,IR,1659324442
193,torokszentmiklos,47.1833,20.4167,62.65,72,0,2.3,HU,1659324442
194,cantagallo,7.376,-73.9196,74.86,97,97,1.25,CO,1659324443
195,urdoma,61.7533,48.5442,60.49,95,50,3.33,RU,1659324443
196,taltal,-25.4,-70.4833,58.01,82,4,4.32,CL,1659324443
197,itaqui,-29.1253,-56.5531,54.09,83,0,7.31,BR,1659324444
198,lewistown,40.5992,-77.5714,69.87,100,100,0.0,US,1659324444
199,upernavik,72.7868,-56.1549,48.47,65,60,6.13,GL,1659324445
200,mamontovo,52.7055,81.6244,73.35,50,86,8.7,RU,1659324445
201,katherine,-14.4667,132.2667,88.12,29,16,10.36,AU,1659324446
202,sebinkarahisar,40.2883,38.4236,58.5,72,0,0.27,TR,1659324446
203,male,4.1748,73.5089,84.15,74,100,20.71,MV,1659324447
204,jaguey grande,22.5269,-81.1286,79.45,83,28,8.57,CU,1659324447
205,mar del plata,-38.0023,-57.5575,52.88,85,0,5.99,AR,1659324447
206,flinders,-34.5833,150.8552,67.17,45,2,11.99,AU,1659324448
207,kuzedeyevo,53.3308,87.2019,72.93,67,92,2.33,RU,1659324448
208,nikolskoye,59.7035,30.7861,57.79,79,100,4.0,RU,1659324449
209,nueve de julio,-35.4444,-60.8831,52.03,70,1,7.45,AR,1659324449
210,dunmore town,25.5,-76.65,83.35,78,87,18.03,BS,1659324450
211,nguruka,-5.1092,31.0419,65.43,72,19,2.77,TZ,1659324450
212,luderitz,-26.6481,15.1594,56.25,55,0,3.58,NA,1659324450
213,chornobay,49.6708,32.3239,65.19,56,100,9.8,UA,1659324451
214,krasnoselkup,65.7,82.4667,53.22,53,2,24.45,RU,1659324451
215,leninskoye,41.7589,69.3864,81.36,26,0,1.5,KZ,1659324452
216,zhigansk,66.7697,123.3711,72.81,60,52,5.55,RU,1659324452
217,eslamshahr,35.5605,51.2346,81.84,46,20,9.22,IR,1659324452
218,tonstad,58.6626,6.7169,47.7,93,40,5.57,NO,1659324453
219,gazalkent,41.5581,69.7708,81.12,25,0,3.06,UZ,1659324453
220,san patricio,28.017,-97.5169,84.88,66,40,12.39,US,1659324454
221,torbay,47.6666,-52.7314,66.88,81,20,17.27,CA,1659324207
222,macheng,31.1783,115.0319,89.44,59,0,3.53,CN,1659324454
223,sawtell,-30.3833,153.1,66.18,68,40,13.8,AU,1659324454
224,thunder bay,48.4001,-89.3168,60.78,100,100,5.75,CA,1659324455
225,havre-saint-pierre,50.2334,-63.5986,61.16,88,100,0.0,CA,1659324455
226,tokur,53.1333,132.9,65.66,92,100,2.93,RU,1659324456
227,chumikan,54.7183,135.315,54.03,99,100,8.63,RU,1659324456
228,victoria,22.2855,114.1577,94.24,72,100,4.0,HK,1659324210
229,abu dhabi,24.4667,54.3667,98.62,40,0,10.36,AE,1659324331
230,asfi,32.2994,-9.2372,75.31,79,71,18.41,MA,1659324457
231,saskylakh,71.9167,114.0833,46.02,74,100,10.18,RU,1659324457
232,sisimiut,66.9395,-53.6735,44.44,83,35,2.08,GL,1659324458
233,barcelona,41.3888,2.159,81.55,73,0,10.36,ES,1659324339
234,touros,-5.1989,-35.4608,75.65,86,89,13.11,BR,1659324458
235,viedma,-40.8135,-62.9967,44.92,70,100,5.93,AR,1659324346
236,kharan,28.5833,65.4167,86.67,53,0,8.7,PK,1659324459
237,bengkulu,-3.8004,102.2655,83.44,69,45,2.71,ID,1659324459
238,biak,-0.9131,122.8766,78.04,85,100,3.67,ID,1659324460
239,dogondoutchi,13.6393,4.0287,75.49,68,80,10.11,NE,1659324460
240,nuuk,64.1835,-51.7216,47.88,76,99,11.01,GL,1659324236
241,kieta,-6.2167,155.6333,85.37,68,66,6.8,PG,1659324461
242,atrauli,28.0333,78.2833,84.16,75,95,1.01,IN,1659324461
243,mporokoso,-9.3727,30.125,57.22,60,3,6.33,ZM,1659324461
244,yuzhnyy,53.2542,83.6936,71.98,56,0,15.66,RU,1659324462
245,sao filipe,14.8961,-24.4956,75.15,78,75,7.02,CV,1659324462
246,sechura,-5.5569,-80.8222,62.67,82,11,11.03,PE,1659324392
247,coquimbo,-29.9533,-71.3436,51.53,100,0,3.44,CL,1659324463
248,salisbury,51.0693,-1.7957,62.89,80,75,9.22,GB,1659324463
249,iquitos,-3.7481,-73.2472,78.84,94,75,4.61,PE,1659324464
250,catamarca,-28.4696,-65.7852,59.77,50,0,1.01,AR,1659324464
251,oktyabrskoye,43.0645,44.7417,62.74,94,1,6.71,RU,1659324464
252,makakilo city,21.3469,-158.0858,81.01,58,75,17.27,US,1659324465
253,umm lajj,25.0213,37.2685,83.88,55,45,4.94,SA,1659324465
254,altay,47.8667,88.1167,76.96,32,12,6.76,CN,1659324466
255,mao,39.8885,4.2658,75.76,78,0,8.05,ES,1659324466
256,hit,33.6416,42.8251,91.36,16,3,8.68,IQ,1659324466
257,chara,56.9064,118.2631,72.21,54,83,3.11,RU,1659324467
258,noumea,-22.2763,166.4572,75.18,99,99,11.92,NC,1659324467
259,chakulia,22.4833,86.7167,88.12,61,100,2.71,IN,1659324468
260,vardo,70.3705,31.1107,49.98,100,100,2.3,NO,1659324468
261,paamiut,61.994,-49.6678,46.47,87,100,4.32,GL,1659324468
262,klaksvik,62.2266,-6.589,50.34,84,75,11.63,FO,1659324469
263,tual,-5.6667,132.75,79.32,84,90,17.2,ID,1659324469
264,auki,-8.7676,160.7034,85.3,65,10,6.17,SB,1659324470
265,copiapo,-27.3667,-70.3333,51.49,67,2,1.79,CL,1659324470
266,igarka,67.4667,86.5833,54.46,53,0,18.32,RU,1659324470
267,itoman,26.1247,127.6694,84.22,82,75,12.66,JP,1659324471
268,verkhnyaya toyma,62.2349,44.9985,57.16,94,12,4.07,RU,1659324471
269,show low,34.2542,-110.0298,68.29,78,75,5.75,US,1659324404
270,vredendal,-31.6683,18.5012,47.08,54,0,6.76,ZA,1659324472
271,tilichiki,60.4667,166.1,57.29,65,27,8.55,RU,1659324473
272,taoudenni,22.6783,-3.9836,93.0,30,95,9.44,ML,1659324473
273,novyy urengoy,66.0833,76.6333,54.64,55,0,16.35,RU,1659324473
274,gojo,34.35,135.7,97.56,41,77,3.91,JP,1659324474
275,port macquarie,-31.4333,152.9167,66.88,55,100,4.68,AU,1659324474
276,mosquera,4.7059,-74.2302,53.69,87,40,4.61,CO,1659324475
277,tommot,58.9564,126.2925,70.75,82,100,4.79,RU,1659324475
278,bandarbeyla,9.4942,50.8122,77.16,69,48,24.9,SO,1659324475
279,thompson,55.7435,-97.8558,51.96,100,75,5.75,CA,1659324476
280,nioro,13.35,-15.75,70.83,94,100,8.93,GM,1659324341
281,timra,62.487,17.3257,61.68,94,75,3.44,SE,1659324476
282,pinhao,-25.6956,-51.6597,48.47,89,0,1.92,BR,1659324477
283,khatanga,71.9667,102.5,46.56,66,97,11.63,RU,1659324477
284,nanortalik,60.1432,-45.2371,45.72,94,90,5.95,GL,1659324478
285,abrau-dyurso,44.69,37.59,76.46,94,1,9.84,RU,1659324478
286,matelandia,-25.2408,-53.9964,57.7,66,10,3.71,BR,1659324478
287,praia,14.9215,-23.5087,77.54,73,75,11.5,CV,1659324479
288,stokmarknes,68.5646,14.9108,53.58,87,75,0.0,NO,1659324479
289,neepawa,50.2289,-99.4664,59.4,85,48,2.82,CA,1659324480
290,port blair,11.6667,92.75,86.04,74,40,9.22,IN,1659324480
291,santa ana,33.7456,-117.8678,85.26,68,40,5.75,US,1659324480
292,tura,25.5198,90.2201,73.92,98,100,5.17,IN,1659324481
293,faya,18.3851,42.4509,64.92,66,79,2.93,SA,1659324481
294,hambantota,6.1241,81.1185,80.94,94,75,11.5,LK,1659324481
295,tynset,62.2759,10.7824,46.02,96,100,7.87,NO,1659324482
296,katsuura,35.1333,140.3,87.48,71,88,13.87,JP,1659324482
297,lebane,42.9239,21.7375,57.79,76,0,2.21,RS,1659324483
298,alice town,25.7167,-79.3,84.34,77,25,17.34,BS,1659324483
299,port elizabeth,-33.918,25.5701,49.32,82,0,5.75,ZA,1659324255
300,kahului,20.8947,-156.47,84.22,66,40,23.02,US,1659324484
301,bereda,43.2686,-7.5406,64.15,100,67,6.17,ES,1659324484
302,vysokogornyy,50.1167,139.15,81.59,49,74,4.34,RU,1659324485
303,snasa,64.2457,12.3778,53.74,99,100,3.87,NO,1659324485
304,shama,33.6102,104.2852,72.88,60,100,4.25,CN,1659324486
305,san-pedro,4.7485,-6.6363,74.23,80,100,11.27,CI,1659324486
306,salinopolis,-0.6136,-47.3561,78.12,86,98,8.86,BR,1659324486
307,tuatapere,-46.1333,167.6833,50.68,78,100,9.69,NZ,1659324487
308,akureyri,65.6835,-18.0878,46.33,71,100,11.5,IS,1659324487
309,dauriya,49.9333,116.8667,81.41,37,40,9.75,RU,1659324488
310,korla,41.7597,86.1469,84.92,30,72,15.5,CN,1659324488
311,akyab,20.15,92.9,85.75,72,99,1.36,MM,1659324489
312,ketchikan,55.3422,-131.6461,63.07,77,75,12.66,US,1659324489
313,sioux lookout,50.1001,-91.917,59.07,94,100,8.05,CA,1659324455
314,kavaratti,10.5669,72.642,78.37,85,100,25.7,IN,1659324490
315,ramhormoz,31.28,49.6035,93.09,47,2,4.36,IR,1659324490
316,baker city,44.7749,-117.8344,89.31,29,20,11.5,US,1659324491
317,kambove,-10.8764,26.5969,57.4,49,0,4.12,CD,1659324491
318,kutum,14.2,24.6667,67.6,78,100,7.63,SD,1659324492
319,geraldton,-28.7667,114.6,72.01,56,75,32.21,AU,1659324492
320,san quintin,30.4833,-115.95,71.02,76,2,8.84,MX,1659324493
321,cherskiy,68.75,161.3,72.73,32,35,16.44,RU,1659324493
322,hashtgerd,35.9642,50.6858,69.64,55,96,3.49,IR,1659324494
323,batouri,4.4333,14.3667,66.06,94,99,3.44,CM,1659324494
324,marzuq,14.4,46.4667,74.43,69,62,12.44,YE,1659324494
325,sorland,67.667,12.6934,53.46,79,100,13.62,NO,1659324495
326,oudtshoorn,-33.5907,22.2014,37.76,80,0,1.25,ZA,1659324495
327,merritt,50.1123,-120.7942,79.2,33,0,5.79,CA,1659324496
328,buta,2.7858,24.73,69.24,99,100,1.86,CD,1659324496
329,luoyang,34.6836,112.4536,89.38,55,0,4.5,CN,1659324497
330,amapa,1.0,-52.0,71.44,99,95,2.06,BR,1659324497
331,mayumba,-3.432,10.6554,69.12,95,86,6.15,GA,1659324498
332,christchurch,-43.5333,172.6333,55.47,57,1,11.5,NZ,1659324257
333,santa marta,11.2408,-74.199,84.25,74,40,6.91,CO,1659324498
334,puerto escondido,15.85,-97.0667,85.03,70,75,3.44,MX,1659324499
335,de aar,-30.6497,24.0123,37.4,55,0,8.77,ZA,1659324499
336,coihaique,-45.5752,-72.0662,35.55,80,0,5.75,CL,1659324304
337,vestmanna,62.1564,-7.1664,47.62,89,73,12.35,FO,1659324500
338,yenagoa,4.9247,6.2642,73.06,92,100,4.29,NG,1659324500
339,wanning,18.8003,110.3967,89.35,62,9,5.21,CN,1659324501
340,diffa,13.3154,12.6113,80.98,55,98,7.4,NE,1659324501
341,aklavik,68.2191,-135.0107,59.45,58,100,13.91,CA,1659324502
342,santa lucia,27.9117,-15.5407,65.52,78,20,24.16,ES,1659324502
343,namibe,-15.1961,12.1522,56.17,79,8,10.71,AO,1659324502
344,zuwarah,32.9312,12.082,79.68,73,0,6.44,LY,1659324503
345,kabare,-2.4683,28.8242,60.78,91,52,1.39,CD,1659324503
346,cartagena,10.3997,-75.5144,82.02,89,75,2.3,CO,1659324392
347,karaton,-6.3424,106.1045,84.83,56,65,4.94,ID,1659324504
348,sept-iles,50.2001,-66.3821,66.72,98,75,4.61,CA,1659324504
349,fergus falls,46.283,-96.0776,69.06,92,0,11.5,US,1659324448
350,bilma,18.6853,12.9164,86.99,42,82,7.14,NE,1659324505
351,portland,45.5234,-122.6762,92.79,45,20,5.75,US,1659324470
352,aykhal,66.0,111.5,52.74,93,100,14.18,RU,1659324505
353,gazanjyk,39.2446,55.5154,86.38,41,2,5.14,TM,1659324506
354,kiruna,67.8557,20.2251,45.52,93,46,2.3,SE,1659324506
355,urumqi,43.801,87.6005,79.75,39,0,8.95,CN,1659324291
356,birmitrapur,22.4,84.7667,82.49,74,100,3.2,IN,1659324507
357,lagos,6.5833,3.75,74.21,90,100,9.55,NG,1659324400
358,mecca,21.4267,39.8261,85.98,32,100,3.33,SA,1659324507
359,hami,42.8,93.45,91.38,20,57,7.49,CN,1659324508
360,port lincoln,-34.7333,135.8667,60.24,61,0,17.85,AU,1659324508
361,malakal,9.5334,31.6605,70.95,95,94,3.6,SS,1659324509
362,akdepe,42.0551,59.3788,80.69,39,43,7.96,TM,1659324509
363,ostrovnoy,68.0531,39.5131,56.34,76,95,4.38,RU,1659324510
364,natitingou,10.3042,1.3796,70.3,96,75,4.92,BJ,1659324510
365,blackwater,-23.5833,148.8833,72.34,49,95,4.63,AU,1659324510
366,la ronge,55.1001,-105.2842,61.02,59,20,3.44,CA,1659324511
367,cockburn town,21.4612,-71.1419,82.09,85,0,18.59,TC,1659324511
368,tynda,55.1667,124.7167,73.36,63,100,4.29,RU,1659324512
369,codajas,-3.8367,-62.0569,75.06,82,24,3.31,BR,1659324512
370,edeia,-17.3383,-49.9314,71.51,36,0,4.52,BR,1659324513
371,boca do acre,-8.7522,-67.3978,76.91,69,27,1.45,BR,1659324513
372,dongsheng,39.8161,109.9776,79.52,43,47,16.8,CN,1659324513
373,yate,51.5407,-2.4184,60.19,75,99,4.63,GB,1659324514
374,semporna,4.4818,118.6112,78.67,87,100,6.35,MY,1659324514
375,yumen,40.2833,97.2,81.82,28,43,12.66,CN,1659324515
376,souillac,-20.5167,57.5167,70.18,83,40,4.61,MU,1659324515
377,rawson,-43.3002,-65.1023,45.34,83,100,8.48,AR,1659324515
378,chernyshevskiy,63.0128,112.4714,75.94,57,17,3.02,RU,1659324516
379,goundam,16.4145,-3.6708,89.91,40,98,6.02,ML,1659324516
380,sur,22.5667,59.5289,85.44,65,63,9.48,OM,1659324517
381,acajutla,13.5928,-89.8275,80.1,82,84,8.08,SV,1659324517
382,mahebourg,-20.4081,57.7,70.09,83,40,4.61,MU,1659324517
383,villa maria,-32.4075,-63.2402,54.09,50,11,5.48,AR,1659324334
384,codrington,-38.2667,141.9667,55.87,73,78,18.63,AU,1659324518
385,norman wells,65.282,-126.8329,71.64,49,75,3.44,CA,1659324518
386,quatre cocos,-20.2078,57.7625,69.91,74,0,11.97,MU,1659324519
387,baykit,61.67,96.37,67.37,85,100,3.8,RU,1659324519
388,freeport,40.6576,-73.5832,78.96,71,0,12.66,US,1659324520
389,campeche,19.0,-90.5,73.71,95,100,1.36,MX,1659324520
390,phan thiet,10.9333,108.1,76.96,93,100,11.43,VN,1659324521
391,tangermunde,52.5446,11.9765,65.95,85,89,6.4,DE,1659324521
392,port hardy,50.6996,-127.4199,64.58,82,75,10.36,CA,1659324522
393,rocha,-34.4833,-54.3333,46.2,84,9,4.61,UY,1659324506
394,hervey bay,-25.2986,152.8535,71.02,66,100,4.0,AU,1659324522
395,naga,13.6192,123.1814,87.78,64,100,5.82,PH,1659324523
396,alofi,-19.0595,-169.9187,80.49,69,16,13.8,NU,1659324239
397,kikwit,-5.041,18.8162,73.0,49,34,3.0,CD,1659324523
398,deneysville,-26.8908,28.0971,46.87,88,46,10.49,ZA,1659324524
399,matay,28.419,30.7792,77.92,64,1,9.64,EG,1659324524
400,westerland,54.9079,8.3033,59.02,82,40,20.71,DE,1659324524
401,polonnaruwa,7.9333,81.0,81.01,74,97,11.01,LK,1659324525
402,divnogorsk,55.9594,92.3619,75.74,64,69,8.37,RU,1659324525
403,sunrise manor,36.2111,-115.0731,87.89,49,75,11.5,US,1659324393
404,vondrozo,-22.8167,47.2833,56.73,97,26,3.2,MG,1659324526
405,juneau,58.3019,-134.4197,61.84,95,100,4.61,US,1659324512
406,kununurra,-15.7667,128.7333,87.78,15,41,8.05,AU,1659324526
407,le port,-20.9373,55.2919,69.26,69,9,9.33,RE,1659324527
408,alingsas,57.9303,12.5335,62.46,99,100,6.35,SE,1659324527
409,boras,57.721,12.9401,59.56,99,100,5.41,SE,1659324528
410,san jose de gracia,20.6667,-102.5833,65.35,75,99,1.21,MX,1659324528
411,pringsewu,-5.3582,104.9744,84.09,70,61,3.74,ID,1659324529
412,ewa beach,21.3156,-158.0072,82.35,58,40,17.27,US,1659324529
413,enshi,30.3,109.4833,88.72,57,1,1.86,CN,1659324529
414,mitsamiouli,-11.3847,43.2844,71.89,83,20,5.75,KM,1659324530
415,yunhe,34.0833,119.7167,87.01,71,0,6.98,CN,1659324530
416,college,64.8569,-147.8028,67.28,70,75,5.75,US,1659324531
417,husavik,66.0449,-17.3389,41.61,95,100,8.55,IS,1659324531
418,manicore,-5.8092,-61.3003,76.01,71,61,2.93,BR,1659324532
419,umm kaddadah,13.6017,26.6876,78.42,61,100,3.71,SD,1659324532
420,richmond,37.5538,-77.4603,75.25,95,100,8.05,US,1659324432
421,grand gaube,-20.0064,57.6608,70.2,83,0,4.0,MU,1659324426
422,yarada,17.65,83.2667,86.32,74,20,3.44,IN,1659324533
423,fairbanks,64.8378,-147.7164,67.6,72,75,5.75,US,1659324334
424,dwarka,22.2394,68.9678,81.23,81,100,20.22,IN,1659324401
425,avera,33.194,-82.5271,78.31,49,22,5.95,US,1659324534
426,coxim,-18.5067,-54.76,72.84,38,0,2.77,BR,1659324534
427,whitehorse,60.7161,-135.0538,65.17,51,75,9.22,CA,1659324534
428,rio gallegos,-51.6226,-69.2181,37.45,70,100,5.75,AR,1659324535
429,sao joao da barra,-21.6403,-41.0511,66.92,76,0,5.41,BR,1659324535
430,lagoa,39.05,-27.9833,72.32,75,0,9.06,PT,1659324536
431,basco,20.4487,121.9702,84.96,76,100,13.18,PH,1659324536
432,zimapan,20.75,-99.35,57.38,94,20,4.7,MX,1659324536
433,bouca,6.5105,18.2733,68.49,97,92,2.55,CF,1659324537
434,helong,42.5397,128.9972,83.59,68,100,2.51,CN,1659324537
435,hualmay,-11.0964,-77.6139,61.63,85,4,9.1,PE,1659324537
436,tupaciguara,-18.5922,-48.705,66.58,39,0,4.9,BR,1659324538
437,desna,50.9273,30.7605,65.86,66,100,7.4,UA,1659324538
438,nara,34.6851,135.8049,97.97,38,71,4.76,JP,1659324539
439,chicama,-7.8447,-79.1469,59.54,87,19,5.32,PE,1659324539
440,kaoma,-14.7833,24.8,51.13,45,0,4.61,ZM,1659324540
441,aden,12.7794,45.0367,83.7,75,23,4.16,YE,1659324281
442,alakurtti,66.9672,30.3491,53.53,99,100,1.74,RU,1659324540
443,tandil,-37.3217,-59.1332,47.48,88,25,3.62,AR,1659324541
444,porto novo,6.4965,2.6036,75.02,83,100,11.9,BJ,1659324541
445,padang,-0.9492,100.3543,87.85,74,100,1.25,ID,1659324542
446,wala,4.578,12.3154,66.42,99,100,3.74,CM,1659324542
447,verkhoyansk,67.5447,133.385,83.32,39,98,14.79,RU,1659324543
448,churapcha,62.0025,132.4325,86.18,37,100,10.45,RU,1659324543
449,ginir,7.1333,40.7,57.58,84,100,9.55,ET,1659324544
450,beruwala,6.4788,79.9828,78.73,87,100,15.5,LK,1659324544
451,strezhevoy,60.7333,77.5889,58.15,54,0,10.54,RU,1659324545
452,muros,42.7762,-9.0603,67.15,79,1,9.01,ES,1659324545
453,broken hill,-31.95,141.4333,57.36,37,0,3.13,AU,1659324545
454,ambilobe,-13.2,49.05,62.58,84,1,3.42,MG,1659324546
455,altamont,42.2068,-121.7372,67.37,69,90,9.22,US,1659324546
456,nkowakowa,-23.8878,30.2871,58.3,83,84,5.93,ZA,1659324547
457,marktoberdorf,47.7833,10.6167,62.1,76,96,4.23,DE,1659324547
458,ust-nera,64.5667,143.2,78.6,46,65,5.99,RU,1659324547
459,cidreira,-30.1811,-50.2056,58.12,90,7,8.97,BR,1659324548
460,terrace,54.5163,-128.6035,75.11,60,100,5.75,CA,1659324389
461,simdega,22.6167,84.5167,81.82,72,100,3.69,IN,1659324549
462,beira,-19.8436,34.8389,69.89,78,20,5.75,MZ,1659324549
463,tessalit,20.1986,1.0114,90.91,18,29,2.64,ML,1659324549
464,ciudad bolivar,8.1222,-63.5497,76.33,87,100,9.64,VE,1659324550
465,nizhniy kuranakh,58.8353,125.4869,76.57,55,100,4.81,RU,1659324550
466,waipawa,-41.4122,175.5153,51.57,60,3,6.53,NZ,1659324551
467,tromso,69.6496,18.957,55.42,82,0,1.14,NO,1659324450
468,lodwar,3.1191,35.5973,79.38,56,45,3.98,KE,1659324551
469,monrovia,6.3005,-10.7969,75.97,84,100,7.96,LR,1659324552
470,xuzhou,34.1805,117.1571,89.1,64,0,3.76,CN,1659324552
471,yelizovo,53.1873,158.3805,66.34,55,75,8.99,RU,1659324553
472,watrous,51.6668,-105.4679,65.98,77,81,6.91,CA,1659324553
473,monte alegre,-2.0078,-54.0692,74.61,89,49,1.45,BR,1659324365
474,dakar,14.6937,-17.4441,80.73,78,40,9.22,SN,1659324257
475,itaituba,-4.2761,-55.9836,73.15,93,79,2.55,BR,1659324554
476,bonoua,5.2741,-3.595,76.62,81,100,9.08,CI,1659324555
477,pandan,14.0453,124.1694,86.54,67,100,4.99,PH,1659324555
478,concordia,-31.393,-58.0209,52.79,91,0,1.99,AR,1659324555
479,ulaangom,49.9811,92.0667,69.94,49,100,4.68,MN,1659324556
480,mercedes,-34.6515,-59.4307,49.03,81,0,5.64,AR,1659324556
481,mount isa,-20.7333,139.5,82.17,20,0,6.91,AU,1659324557
482,belmonte,-15.8631,-38.8828,71.49,86,5,5.32,BR,1659324557
483,bodden town,19.2833,-81.25,89.01,82,20,6.91,KY,1659324557
484,menongue,-14.6585,17.691,50.86,51,2,2.64,AO,1659324282
485,samana,19.2056,-69.3369,79.86,86,11,7.94,DO,1659324558
486,svobodnyy,51.4,128.1333,81.55,51,100,8.21,RU,1659324424
487,mikuni,36.2171,136.1519,91.31,59,98,10.8,JP,1659324559
488,bathsheba,13.2167,-59.5167,83.01,90,40,20.71,BB,1659324559
489,comodoro rivadavia,-45.8667,-67.5,40.86,48,0,2.3,AR,1659324482
490,teguise,29.0605,-13.564,70.02,83,0,18.41,ES,1659324560
491,gwadar,25.1216,62.3254,81.28,84,100,8.39,PK,1659324561
492,atar,20.5169,-13.0499,87.26,50,1,15.19,MR,1659324561
493,tecoanapa,16.5167,-98.75,82.2,79,84,7.47,MX,1659324433
494,bima,-8.4667,118.7167,91.11,47,73,6.8,ID,1659324562
495,eyrarbakki,63.863,-21.1481,48.25,80,70,11.12,IS,1659324562
496,hammerfest,70.6634,23.6821,57.65,77,46,4.61,NO,1659324563
497,maarianhamina,60.0973,19.9348,51.66,100,21,1.14,AX,1659324563
498,lahij,13.1667,44.5833,82.27,64,5,3.65,YE,1659324564
499,oyama,36.3,139.8,97.59,39,95,3.47,JP,1659324564
500,shellbrook,53.2168,-106.4011,65.43,71,86,3.04,CA,1659324564
501,lahaina,20.8783,-156.6825,84.2,81,5,15.19,US,1659324425
502,high rock,26.6208,-78.2833,84.16,74,75,13.38,BS,1659324565
503,medan,3.5833,98.6667,82.44,83,75,0.0,ID,1659324565
504,mountain home,43.133,-115.6912,94.48,12,0,0.0,US,1659324566
505,basoko,1.2391,23.616,69.51,94,100,3.76,CD,1659324566
506,portmore,17.9702,-76.8672,85.96,76,20,19.57,JM,1659324567
507,asau,46.4333,26.4,60.28,94,32,4.5,RO,1659324567
508,seoul,37.5683,126.9778,89.17,74,75,10.36,KR,1659324536
509,kanigoro,-8.13,112.219,84.34,58,56,2.44,ID,1659324568
510,san policarpo,12.1791,125.5072,85.48,71,83,11.72,PH,1659324568
511,palembang,-2.9167,104.7458,86.09,74,40,6.91,ID,1659324568
512,nago,26.5881,127.9761,82.83,84,100,15.57,JP,1659324569
513,pizhanka,57.4604,48.542,58.78,80,0,4.74,RU,1659324569
514,nome,64.5011,-165.4064,59.07,68,40,9.22,US,1659324570
515,xichang,27.8964,102.2634,73.42,76,96,3.58,CN,1659324570
516,fort nelson,58.8053,-122.7002,67.59,68,75,6.91,CA,1659324571
517,hebi,35.8992,114.1925,88.7,59,2,4.32,CN,1659324571
518,paraiso,9.8383,-83.8656,67.06,95,87,3.42,CR,1659324571
519,guacimo,10.2104,-83.6807,73.02,95,31,2.8,CR,1659324572
520,liangxiang,39.7319,116.14,91.4,50,0,4.27,CN,1659324572
521,abatskoye,56.2875,70.4555,62.08,90,99,9.82,RU,1659324573
522,sesheke,-17.4759,24.2968,53.94,29,0,6.02,ZM,1659324573
523,puerto carreno,6.189,-67.4859,75.63,95,100,4.72,CO,1659324573
524,manta,-0.95,-80.7333,71.38,83,20,9.22,EC,1659324574
525,divnomorskoye,44.5011,38.1353,76.01,92,34,9.4,RU,1659324574
526,oranjemund,-28.55,16.4333,52.74,49,0,11.63,NA,1659324575
527,sembakung,3.8167,117.25,80.49,79,100,2.42,ID,1659324575
528,acapulco,16.8634,-99.8901,84.02,79,40,6.91,MX,1659324576
529,wewak,-3.5534,143.6268,85.71,65,96,8.59,PG,1659324576
530,gizo,-8.103,156.8419,85.68,64,3,4.7,SB,1659324576
531,snezhnogorsk,69.1933,33.2531,51.58,88,100,5.37,RU,1659324577
532,nishihara,26.1842,127.7558,83.48,84,75,12.66,JP,1659324577
533,udachnyy,66.4167,112.4,53.96,84,100,17.58,RU,1659324578
534,tomatlan,19.9333,-105.25,77.83,85,100,2.71,MX,1659324578
535,banfora,10.6333,-4.7667,75.29,89,100,3.8,BF,1659324578
536,boa vista,2.8197,-60.6733,80.58,78,20,5.75,BR,1659324308
537,waddan,29.1614,16.139,77.05,50,0,2.17,LY,1659324579
538,lakatoro,-16.0999,167.4164,82.18,71,7,10.18,VU,1659324579
539,barra do garcas,-15.89,-52.2567,68.92,33,0,1.52,BR,1659324580
540,marrakesh,31.6315,-8.0083,87.87,37,40,1.14,MA,1659324580
541,constitucion,-35.3333,-72.4167,48.6,89,91,5.08,CL,1659324581
542,paredon,16.0333,-93.8667,80.78,83,98,7.81,MX,1659324581
543,amahai,-3.3333,128.9167,81.57,78,100,5.44,ID,1659324582
544,zalantun,48.0,122.7167,82.74,55,2,2.77,CN,1659324582
545,lamu,-2.2717,40.902,73.62,75,74,15.3,KE,1659324582
546,peleduy,59.6289,112.7406,72.41,69,91,7.7,RU,1659324583
547,erzurum,40.0,41.5,51.48,59,0,4.45,TR,1659324583
548,richards bay,-28.783,32.0377,60.26,75,100,7.18,ZA,1659324584
549,cabedelo,-6.9811,-34.8339,74.07,83,86,11.63,BR,1659324584
550,laguna,38.421,-121.4238,81.97,61,0,8.05,US,1659324584
551,lobatse,-25.2167,25.6667,51.67,33,51,7.2,BW,1659324585
552,ust-tsilma,65.441,52.1498,61.21,83,100,6.33,RU,1659324585
553,okhotsk,59.3833,143.3,58.91,86,100,8.25,RU,1659324586
554,carauari,-4.8828,-66.8958,78.85,73,99,1.25,BR,1659324586
555,columbus,39.9612,-82.9988,71.2,86,0,5.75,US,1659324520
556,havelock,34.8791,-76.9013,84.18,93,0,8.05,US,1659324587
557,ust-omchug,61.15,149.6333,49.98,92,100,7.54,RU,1659324587
558,lakes entrance,-37.8811,147.981,62.17,41,0,12.62,AU,1659324587
559,calamar,10.2511,-74.9146,78.17,91,100,4.79,CO,1659324588
560,spornoye,50.8448,37.2913,58.62,64,73,9.08,RU,1659324588
561,almansa,38.8692,-1.0971,70.36,78,0,3.15,ES,1659324589
562,port-gentil,-0.7193,8.7815,74.16,86,55,13.62,GA,1659324589
563,anshun,26.25,105.9333,74.79,73,45,11.5,CN,1659324589
564,palauig,15.435,119.9045,80.65,84,100,10.69,PH,1659324590
565,althofen,46.8818,14.4676,59.56,78,46,2.84,AT,1659324590
566,port-cartier,50.0334,-66.8654,66.42,93,83,6.53,CA,1659324590
567,abnub,27.2696,31.1511,81.01,52,26,7.65,EG,1659324591
